header: 
  seq: 2291
  stamp: 
    secs: 1534219942
    nsecs: 776000281
  frame_id: "imu"
orientation: 
  x: -0.06041932
  y: 0.05046213
  z: 0.07762308
  w: 0.99387014
orientation_covariance: [0.0001, 0.0, 0.0, 0.0, 0.0001, 0.0, 0.0, 0.0, 0.0001]
angular_velocity: 
  x: -0.00039947
  y: 0.00292948
  z: 0.00039947
angular_velocity_covariance: [0.0001, 0.0, 0.0, 0.0, 0.0001, 0.0, 0.0, 0.0, 0.0001]
linear_acceleration: 
  x: -0.01112825
  y: -0.01133364
  z: 0.10184714
linear_acceleration_covariance: [0.0001, 0.0, 0.0, 0.0, 0.0001, 0.0, 0.0, 0.0, 0.0001]
---
header: 
  seq: 2292
  stamp: 
    secs: 1534219942
    nsecs: 831339965
  frame_id: "imu"
orientation: 
  x: -0.06105637
  y: 0.05039319
  z: 0.08117503
  w: 0.99355084
orientation_covariance: [0.0001, 0.0, 0.0, 0.0, 0.0001, 0.0, 0.0, 0.0, 0.0001]
angular_velocity: 
  x: -0.00013316
  y: 0.00319579
  z: 0.0
angular_velocity_covariance: [0.0001, 0.0, 0.0, 0.0, 0.0001, 0.0, 0.0, 0.0, 0.0001]
linear_acceleration: 
  x: -0.01148923
  y: -0.01158882
  z: 0.10212722
linear_acceleration_covariance: [0.0001, 0.0, 0.0, 0.0, 0.0001, 0.0, 0.0, 0.0, 0.0001]
---
header: 
  seq: 2293
  stamp: 
    secs: 1534219942
    nsecs: 886675277
  frame_id: "imu"
orientation: 
  x: -0.06045746
  y: 0.05029101
  z: 0.08082048
  w: 0.99362153
orientation_covariance: [0.0001, 0.0, 0.0, 0.0, 0.0001, 0.0, 0.0, 0.0, 0.0001]
angular_velocity: 
  x: -0.00026632
  y: 0.0015979
  z: 0.00013316
angular_velocity_covariance: [0.0001, 0.0, 0.0, 0.0, 0.0001, 0.0, 0.0, 0.0, 0.0001]
linear_acceleration: 
  x: -0.01147056
  y: -0.01152035
  z: 0.10230149
linear_acceleration_covariance: [0.0001, 0.0, 0.0, 0.0, 0.0001, 0.0, 0.0, 0.0, 0.0001]
---
header: 
  seq: 2294
  stamp: 
    secs: 1534219942
    nsecs: 945773571
  frame_id: "imu"
orientation: 
  x: -0.05927876
  y: 0.05030091
  z: 0.0771087
  w: 0.99398702
orientation_covariance: [0.0001, 0.0, 0.0, 0.0, 0.0001, 0.0, 0.0, 0.0, 0.0001]
angular_velocity: 
  x: 0.00119842
  y: 0.00146474
  z: 0.00013316
angular_velocity_covariance: [0.0001, 0.0, 0.0, 0.0, 0.0001, 0.0, 0.0, 0.0, 0.0001]
linear_acceleration: 
  x: -0.01135231
  y: -0.01158259
  z: 0.10206498
linear_acceleration_covariance: [0.0001, 0.0, 0.0, 0.0, 0.0001, 0.0, 0.0, 0.0, 0.0001]
---
header: 
  seq: 2295
  stamp: 
    secs: 1534219943
    nsecs:   2363748
  frame_id: "imu"
orientation: 
  x: -0.05939052
  y: 0.05040741
  z: 0.07589129
  w: 0.99406868
orientation_covariance: [0.0001, 0.0, 0.0, 0.0, 0.0001, 0.0, 0.0, 0.0, 0.0001]
angular_velocity: 
  x: 0.00146474
  y: 0.0015979
  z: 0.0
angular_velocity_covariance: [0.0001, 0.0, 0.0, 0.0, 0.0001, 0.0, 0.0, 0.0, 0.0001]
linear_acceleration: 
  x: -0.01113447
  y: -0.01147056
  z: 0.10177868
linear_acceleration_covariance: [0.0001, 0.0, 0.0, 0.0, 0.0001, 0.0, 0.0, 0.0, 0.0001]
---
header: 
  seq: 2296
  stamp: 
    secs: 1534219943
    nsecs:  61495889
  frame_id: "imu"
orientation: 
  x: -0.06010234
  y: 0.05053246
  z: 0.07815197
  w: 0.99384427
orientation_covariance: [0.0001, 0.0, 0.0, 0.0, 0.0001, 0.0, 0.0, 0.0, 0.0001]
angular_velocity: 
  x: -0.00039947
  y: 0.00359527
  z: 0.00013316
angular_velocity_covariance: [0.0001, 0.0, 0.0, 0.0, 0.0001, 0.0, 0.0, 0.0, 0.0001]
linear_acceleration: 
  x: -0.01150168
  y: -0.01157637
  z: 0.10164176
linear_acceleration_covariance: [0.0001, 0.0, 0.0, 0.0, 0.0001, 0.0, 0.0, 0.0, 0.0001]
---
header: 
  seq: 2297
  stamp: 
    secs: 1534219943
    nsecs: 121834475
  frame_id: "imu"
orientation: 
  x: -0.06029955
  y: 0.05053623
  z: 0.07902854
  w: 0.99376279
orientation_covariance: [0.0001, 0.0, 0.0, 0.0, 0.0001, 0.0, 0.0, 0.0, 0.0001]
angular_velocity: 
  x: -0.00013316
  y: 0.00186421
  z: 0.00133158
angular_velocity_covariance: [0.0001, 0.0, 0.0, 0.0, 0.0001, 0.0, 0.0, 0.0, 0.0001]
linear_acceleration: 
  x: -0.01120916
  y: -0.01150791
  z: 0.102121
linear_acceleration_covariance: [0.0001, 0.0, 0.0, 0.0, 0.0001, 0.0, 0.0, 0.0, 0.0001]
---
header: 
  seq: 2298
  stamp: 
    secs: 1534219943
    nsecs: 177150470
  frame_id: "imu"
orientation: 
  x: -0.05954252
  y: 0.05045983
  z: 0.07610316
  w: 0.99404073
orientation_covariance: [0.0001, 0.0, 0.0, 0.0, 0.0001, 0.0, 0.0, 0.0, 0.0001]
angular_velocity: 
  x: 0.00013316
  y: 0.00199737
  z: 0.00066579
angular_velocity_covariance: [0.0001, 0.0, 0.0, 0.0, 0.0001, 0.0, 0.0, 0.0, 0.0001]
linear_acceleration: 
  x: -0.01106601
  y: -0.01152658
  z: 0.10202141
linear_acceleration_covariance: [0.0001, 0.0, 0.0, 0.0, 0.0001, 0.0, 0.0, 0.0, 0.0001]
---
header: 
  seq: 2299
  stamp: 
    secs: 1534219943
    nsecs: 236235892
  frame_id: "imu"
orientation: 
  x: -0.05916088
  y: 0.05058329
  z: 0.07437747
  w: 0.99418777
orientation_covariance: [0.0001, 0.0, 0.0, 0.0, 0.0001, 0.0, 0.0, 0.0, 0.0001]
angular_velocity: 
  x: 0.0
  y: 0.00239685
  z: 0.00026632
angular_velocity_covariance: [0.0001, 0.0, 0.0, 0.0, 0.0001, 0.0, 0.0, 0.0, 0.0001]
linear_acceleration: 
  x: -0.01133986
  y: -0.01151413
  z: 0.10233883
linear_acceleration_covariance: [0.0001, 0.0, 0.0, 0.0, 0.0001, 0.0, 0.0, 0.0, 0.0001]
---
header: 
  seq: 2300
  stamp: 
    secs: 1534219943
    nsecs: 295311375
  frame_id: "imu"
orientation: 
  x: -0.05935455
  y: 0.05039781
  z: 0.07480821
  w: 0.99415332
orientation_covariance: [0.0001, 0.0, 0.0, 0.0, 0.0001, 0.0, 0.0, 0.0, 0.0001]
angular_velocity: 
  x: -0.00026632
  y: 0.00346211
  z: 0.0
angular_velocity_covariance: [0.0001, 0.0, 0.0, 0.0, 0.0001, 0.0, 0.0, 0.0, 0.0001]
linear_acceleration: 
  x: -0.0111158
  y: -0.01137721
  z: 0.10163553
linear_acceleration_covariance: [0.0001, 0.0, 0.0, 0.0, 0.0001, 0.0, 0.0, 0.0, 0.0001]
---
header: 
  seq: 2301
  stamp: 
    secs: 1534219943
    nsecs: 350673793
  frame_id: "imu"
orientation: 
  x: -0.05964487
  y: 0.05037483
  z: 0.07501841
  w: 0.99412125
orientation_covariance: [0.0001, 0.0, 0.0, 0.0, 0.0001, 0.0, 0.0, 0.0, 0.0001]
angular_velocity: 
  x: -0.00106526
  y: 0.00426106
  z: 0.00039947
angular_velocity_covariance: [0.0001, 0.0, 0.0, 0.0, 0.0001, 0.0, 0.0, 0.0, 0.0001]
linear_acceleration: 
  x: -0.01109713
  y: -0.01143322
  z: 0.10188448
linear_acceleration_covariance: [0.0001, 0.0, 0.0, 0.0, 0.0001, 0.0, 0.0, 0.0, 0.0001]
---
header: 
  seq: 2302
  stamp: 
    secs: 1534219943
    nsecs: 407672624
  frame_id: "imu"
orientation: 
  x: -0.06007756
  y: 0.05026931
  z: 0.07597046
  w: 0.99402833
orientation_covariance: [0.0001, 0.0, 0.0, 0.0, 0.0001, 0.0, 0.0, 0.0, 0.0001]
angular_velocity: 
  x: -0.00013316
  y: 0.00292948
  z: -0.00119842
angular_velocity_covariance: [0.0001, 0.0, 0.0, 0.0, 0.0001, 0.0, 0.0, 0.0, 0.0001]
linear_acceleration: 
  x: -0.01141455
  y: -0.0115328
  z: 0.1018347
linear_acceleration_covariance: [0.0001, 0.0, 0.0, 0.0, 0.0001, 0.0, 0.0, 0.0, 0.0001]
---
header: 
  seq: 2303
  stamp: 
    secs: 1534219943
    nsecs: 465056944
  frame_id: "imu"
orientation: 
  x: -0.06017091
  y: 0.05021539
  z: 0.07681538
  w: 0.99396038
orientation_covariance: [0.0001, 0.0, 0.0, 0.0, 0.0001, 0.0, 0.0, 0.0, 0.0001]
angular_velocity: 
  x: 0.0
  y: 0.00239685
  z: -0.00079895
angular_velocity_covariance: [0.0001, 0.0, 0.0, 0.0, 0.0001, 0.0, 0.0, 0.0, 0.0001]
linear_acceleration: 
  x: -0.01119049
  y: -0.01138343
  z: 0.10189693
linear_acceleration_covariance: [0.0001, 0.0, 0.0, 0.0, 0.0001, 0.0, 0.0, 0.0, 0.0001]
---
header: 
  seq: 2304
  stamp: 
    secs: 1534219943
    nsecs: 520485145
  frame_id: "imu"
orientation: 
  x: -0.06025514
  y: 0.05019493
  z: 0.07763222
  w: 0.99389291
orientation_covariance: [0.0001, 0.0, 0.0, 0.0, 0.0001, 0.0, 0.0, 0.0, 0.0001]
angular_velocity: 
  x: -0.00079895
  y: 0.00199737
  z: -0.00106526
angular_velocity_covariance: [0.0001, 0.0, 0.0, 0.0, 0.0001, 0.0, 0.0, 0.0, 0.0001]
linear_acceleration: 
  x: -0.01114692
  y: -0.01141455
  z: 0.10211477
linear_acceleration_covariance: [0.0001, 0.0, 0.0, 0.0, 0.0001, 0.0, 0.0, 0.0, 0.0001]
---
header: 
  seq: 2305
  stamp: 
    secs: 1534219943
    nsecs: 577007255
  frame_id: "imu"
orientation: 
  x: -0.06045529
  y: 0.05035356
  z: 0.07836374
  w: 0.9938153
orientation_covariance: [0.0001, 0.0, 0.0, 0.0, 0.0001, 0.0, 0.0, 0.0, 0.0001]
angular_velocity: 
  x: 0.00039947
  y: 0.00372843
  z: 0.00239685
angular_velocity_covariance: [0.0001, 0.0, 0.0, 0.0, 0.0001, 0.0, 0.0, 0.0, 0.0001]
linear_acceleration: 
  x: -0.01138343
  y: -0.01156392
  z: 0.10185959
linear_acceleration_covariance: [0.0001, 0.0, 0.0, 0.0, 0.0001, 0.0, 0.0, 0.0, 0.0001]
---
header: 
  seq: 2306
  stamp: 
    secs: 1534219943
    nsecs: 634844251
  frame_id: "imu"
orientation: 
  x: -0.06082182
  y: 0.05007935
  z: 0.080691
  w: 0.99362051
orientation_covariance: [0.0001, 0.0, 0.0, 0.0, 0.0001, 0.0, 0.0, 0.0, 0.0001]
angular_velocity: 
  x: 0.00253
  y: 0.0015979
  z: -0.00066579
angular_velocity_covariance: [0.0001, 0.0, 0.0, 0.0, 0.0001, 0.0, 0.0, 0.0, 0.0001]
linear_acceleration: 
  x: -0.01115937
  y: -0.0115328
  z: 0.10177868
linear_acceleration_covariance: [0.0001, 0.0, 0.0, 0.0, 0.0001, 0.0, 0.0, 0.0, 0.0001]
---
header: 
  seq: 2307
  stamp: 
    secs: 1534219943
    nsecs: 690142604
  frame_id: "imu"
orientation: 
  x: -0.06147201
  y: 0.04986725
  z: 0.0850173
  w: 0.9932304
orientation_covariance: [0.0001, 0.0, 0.0, 0.0, 0.0001, 0.0, 0.0, 0.0, 0.0001]
angular_velocity: 
  x: 0.00093211
  y: 0.00359527
  z: 0.00093211
angular_velocity_covariance: [0.0001, 0.0, 0.0, 0.0, 0.0001, 0.0, 0.0, 0.0, 0.0001]
linear_acceleration: 
  x: -0.01137098
  y: -0.01152658
  z: 0.10237617
linear_acceleration_covariance: [0.0001, 0.0, 0.0, 0.0, 0.0001, 0.0, 0.0, 0.0, 0.0001]
---
header: 
  seq: 2308
  stamp: 
    secs: 1534219943
    nsecs: 746730601
  frame_id: "imu"
orientation: 
  x: -0.06136234
  y: 0.04977798
  z: 0.08660886
  w: 0.9931041
orientation_covariance: [0.0001, 0.0, 0.0, 0.0, 0.0001, 0.0, 0.0, 0.0, 0.0001]
angular_velocity: 
  x: -0.0015979
  y: 0.00399474
  z: 0.00026632
angular_velocity_covariance: [0.0001, 0.0, 0.0, 0.0, 0.0001, 0.0, 0.0, 0.0, 0.0001]
linear_acceleration: 
  x: -0.01115937
  y: -0.01151413
  z: 0.10199652
linear_acceleration_covariance: [0.0001, 0.0, 0.0, 0.0, 0.0001, 0.0, 0.0, 0.0, 0.0001]
---
header: 
  seq: 2309
  stamp: 
    secs: 1534219943
    nsecs: 804558334
  frame_id: "imu"
orientation: 
  x: -0.05939067
  y: 0.05005222
  z: 0.08061907
  w: 0.99371427
orientation_covariance: [0.0001, 0.0, 0.0, 0.0, 0.0001, 0.0, 0.0, 0.0, 0.0001]
angular_velocity: 
  x: 0.00133158
  y: 0.00079895
  z: 0.00106526
angular_velocity_covariance: [0.0001, 0.0, 0.0, 0.0, 0.0001, 0.0, 0.0, 0.0, 0.0001]
linear_acceleration: 
  x: -0.0112465
  y: -0.01157637
  z: 0.10225792
linear_acceleration_covariance: [0.0001, 0.0, 0.0, 0.0, 0.0001, 0.0, 0.0, 0.0, 0.0001]
---
header: 
  seq: 2310
  stamp: 
    secs: 1534219943
    nsecs: 859884113
  frame_id: "imu"
orientation: 
  x: -0.05876692
  y: 0.0502382
  z: 0.07736488
  w: 0.99400061
orientation_covariance: [0.0001, 0.0, 0.0, 0.0, 0.0001, 0.0, 0.0, 0.0, 0.0001]
angular_velocity: 
  x: -0.00053263
  y: 0.00319579
  z: 0.00053263
angular_velocity_covariance: [0.0001, 0.0, 0.0, 0.0, 0.0001, 0.0, 0.0, 0.0, 0.0001]
linear_acceleration: 
  x: -0.01128385
  y: -0.01147056
  z: 0.10192183
linear_acceleration_covariance: [0.0001, 0.0, 0.0, 0.0, 0.0001, 0.0, 0.0, 0.0, 0.0001]
---
header: 
  seq: 2311
  stamp: 
    secs: 1534219943
    nsecs: 918969536
  frame_id: "imu"
orientation: 
  x: -0.05852677
  y: 0.05036967
  z: 0.07474955
  w: 0.99420822
orientation_covariance: [0.0001, 0.0, 0.0, 0.0, 0.0001, 0.0, 0.0, 0.0, 0.0001]
angular_velocity: 
  x: 0.00226369
  y: 0.00213053
  z: 0.00093211
angular_velocity_covariance: [0.0001, 0.0, 0.0, 0.0, 0.0001, 0.0, 0.0, 0.0, 0.0001]
linear_acceleration: 
  x: -0.01137721
  y: -0.01157014
  z: 0.10194051
linear_acceleration_covariance: [0.0001, 0.0, 0.0, 0.0, 0.0001, 0.0, 0.0, 0.0, 0.0001]
---
header: 
  seq: 2312
  stamp: 
    secs: 1534219943
    nsecs: 974309003
  frame_id: "imu"
orientation: 
  x: -0.05891018
  y: 0.05068108
  z: 0.07326028
  w: 0.99428064
orientation_covariance: [0.0001, 0.0, 0.0, 0.0, 0.0001, 0.0, 0.0, 0.0, 0.0001]
angular_velocity: 
  x: 0.00106526
  y: 0.00239685
  z: 0.00093211
angular_velocity_covariance: [0.0001, 0.0, 0.0, 0.0, 0.0001, 0.0, 0.0, 0.0, 0.0001]
linear_acceleration: 
  x: -0.0114021
  y: -0.01158882
  z: 0.10204008
linear_acceleration_covariance: [0.0001, 0.0, 0.0, 0.0, 0.0001, 0.0, 0.0, 0.0, 0.0001]
---
header: 
  seq: 2313
  stamp: 
    secs: 1534219944
    nsecs:  30876178
  frame_id: "imu"
orientation: 
  x: -0.06041914
  y: 0.05065146
  z: 0.07629585
  w: 0.99396324
orientation_covariance: [0.0001, 0.0, 0.0, 0.0, 0.0001, 0.0, 0.0, 0.0, 0.0001]
angular_velocity: 
  x: 0.0
  y: 0.00292948
  z: -0.00026632
angular_velocity_covariance: [0.0001, 0.0, 0.0, 0.0, 0.0001, 0.0, 0.0, 0.0, 0.0001]
linear_acceleration: 
  x: -0.011427
  y: -0.01163861
  z: 0.10189071
linear_acceleration_covariance: [0.0001, 0.0, 0.0, 0.0, 0.0001, 0.0, 0.0, 0.0, 0.0001]
---
header: 
  seq: 2314
  stamp: 
    secs: 1534219944
    nsecs:  88772088
  frame_id: "imu"
orientation: 
  x: -0.0610426
  y: 0.05050393
  z: 0.07929323
  w: 0.993698
orientation_covariance: [0.0001, 0.0, 0.0, 0.0, 0.0001, 0.0, 0.0, 0.0, 0.0001]
angular_velocity: 
  x: -0.00039947
  y: 0.00226369
  z: 0.00093211
angular_velocity_covariance: [0.0001, 0.0, 0.0, 0.0, 0.0001, 0.0, 0.0, 0.0, 0.0001]
linear_acceleration: 
  x: -0.01136476
  y: -0.0112465
  z: 0.10185959
linear_acceleration_covariance: [0.0001, 0.0, 0.0, 0.0, 0.0001, 0.0, 0.0, 0.0, 0.0001]
---
header: 
  seq: 2315
  stamp: 
    secs: 1534219944
    nsecs: 144042306
  frame_id: "imu"
orientation: 
  x: -0.06011615
  y: 0.05057014
  z: 0.07800189
  w: 0.99385339
orientation_covariance: [0.0001, 0.0, 0.0, 0.0, 0.0001, 0.0, 0.0, 0.0, 0.0001]
angular_velocity: 
  x: 0.00039947
  y: 0.00133158
  z: -0.00066579
angular_velocity_covariance: [0.0001, 0.0, 0.0, 0.0, 0.0001, 0.0, 0.0, 0.0, 0.0001]
linear_acceleration: 
  x: -0.01135853
  y: -0.01167595
  z: 0.10221435
linear_acceleration_covariance: [0.0001, 0.0, 0.0, 0.0, 0.0001, 0.0, 0.0, 0.0, 0.0001]
---
header: 
  seq: 2316
  stamp: 
    secs: 1534219944
    nsecs: 200629247
  frame_id: "imu"
orientation: 
  x: -0.05938939
  y: 0.05075072
  z: 0.07506467
  w: 0.99411404
orientation_covariance: [0.0001, 0.0, 0.0, 0.0, 0.0001, 0.0, 0.0, 0.0, 0.0001]
angular_velocity: 
  x: -0.00039947
  y: 0.00106526
  z: -0.00079895
angular_velocity_covariance: [0.0001, 0.0, 0.0, 0.0, 0.0001, 0.0, 0.0, 0.0, 0.0001]
linear_acceleration: 
  x: -0.01110958
  y: -0.01127762
  z: 0.10170399
linear_acceleration_covariance: [0.0001, 0.0, 0.0, 0.0, 0.0001, 0.0, 0.0, 0.0, 0.0001]
---
header: 
  seq: 2317
  stamp: 
    secs: 1534219944
    nsecs: 258506681
  frame_id: "imu"
orientation: 
  x: -0.05938621
  y: 0.05069801
  z: 0.07447092
  w: 0.99416155
orientation_covariance: [0.0001, 0.0, 0.0, 0.0, 0.0001, 0.0, 0.0, 0.0, 0.0001]
angular_velocity: 
  x: 0.00026632
  y: 0.00213053
  z: 0.00026632
angular_velocity_covariance: [0.0001, 0.0, 0.0, 0.0, 0.0001, 0.0, 0.0, 0.0, 0.0001]
linear_acceleration: 
  x: -0.01146434
  y: -0.01150168
  z: 0.10208365
linear_acceleration_covariance: [0.0001, 0.0, 0.0, 0.0, 0.0001, 0.0, 0.0, 0.0, 0.0001]
---
header: 
  seq: 2318
  stamp: 
    secs: 1534219944
    nsecs: 313792929
  frame_id: "imu"
orientation: 
  x: -0.0598918
  y: 0.05061436
  z: 0.07583417
  w: 0.99403238
orientation_covariance: [0.0001, 0.0, 0.0, 0.0, 0.0001, 0.0, 0.0, 0.0, 0.0001]
angular_velocity: 
  x: -0.00079895
  y: 0.00199737
  z: 0.00093211
angular_velocity_covariance: [0.0001, 0.0, 0.0, 0.0, 0.0001, 0.0, 0.0, 0.0, 0.0001]
linear_acceleration: 
  x: -0.01137098
  y: -0.01133364
  z: 0.10195295
linear_acceleration_covariance: [0.0001, 0.0, 0.0, 0.0, 0.0001, 0.0, 0.0, 0.0, 0.0001]
---
header: 
  seq: 2319
  stamp: 
    secs: 1534219944
    nsecs: 370396524
  frame_id: "imu"
orientation: 
  x: -0.05984628
  y: 0.05082649
  z: 0.07640698
  w: 0.99398047
orientation_covariance: [0.0001, 0.0, 0.0, 0.0, 0.0001, 0.0, 0.0, 0.0, 0.0001]
angular_velocity: 
  x: -0.00013316
  y: 0.00173105
  z: -0.00066579
angular_velocity_covariance: [0.0001, 0.0, 0.0, 0.0, 0.0001, 0.0, 0.0, 0.0, 0.0001]
linear_acceleration: 
  x: -0.01138965
  y: -0.01148301
  z: 0.10227659
linear_acceleration_covariance: [0.0001, 0.0, 0.0, 0.0, 0.0001, 0.0, 0.0, 0.0, 0.0001]
---
header: 
  seq: 2320
  stamp: 
    secs: 1534219944
    nsecs: 428214576
  frame_id: "imu"
orientation: 
  x: -0.05942673
  y: 0.0508345
  z: 0.07493625
  w: 0.99411714
orientation_covariance: [0.0001, 0.0, 0.0, 0.0, 0.0001, 0.0, 0.0, 0.0, 0.0001]
angular_velocity: 
  x: -0.00066579
  y: 0.00106526
  z: 0.00026632
angular_velocity_covariance: [0.0001, 0.0, 0.0, 0.0, 0.0001, 0.0, 0.0, 0.0, 0.0001]
linear_acceleration: 
  x: -0.01137721
  y: -0.01147679
  z: 0.10227659
linear_acceleration_covariance: [0.0001, 0.0, 0.0, 0.0, 0.0001, 0.0, 0.0, 0.0, 0.0001]
---
header: 
  seq: 2321
  stamp: 
    secs: 1534219944
    nsecs: 484798655
  frame_id: "imu"
orientation: 
  x: -0.05942152
  y: 0.05076484
  z: 0.0741267
  w: 0.99418175
orientation_covariance: [0.0001, 0.0, 0.0, 0.0, 0.0001, 0.0, 0.0, 0.0, 0.0001]
angular_velocity: 
  x: 0.00026632
  y: 0.00173105
  z: 0.00106526
angular_velocity_covariance: [0.0001, 0.0, 0.0, 0.0, 0.0001, 0.0, 0.0, 0.0, 0.0001]
linear_acceleration: 
  x: -0.0112465
  y: -0.01173196
  z: 0.10222057
linear_acceleration_covariance: [0.0001, 0.0, 0.0, 0.0, 0.0001, 0.0, 0.0, 0.0, 0.0001]
---
header: 
  seq: 2322
  stamp: 
    secs: 1534219944
    nsecs: 543892575
  frame_id: "imu"
orientation: 
  x: -0.06000302
  y: 0.05079523
  z: 0.07613453
  w: 0.99399346
orientation_covariance: [0.0001, 0.0, 0.0, 0.0, 0.0001, 0.0, 0.0, 0.0, 0.0001]
angular_velocity: 
  x: 0.00066579
  y: 0.00199737
  z: 0.00013316
angular_velocity_covariance: [0.0001, 0.0, 0.0, 0.0, 0.0001, 0.0, 0.0, 0.0, 0.0001]
linear_acceleration: 
  x: -0.01121539
  y: -0.01149546
  z: 0.10228281
linear_acceleration_covariance: [0.0001, 0.0, 0.0, 0.0, 0.0001, 0.0, 0.0, 0.0, 0.0001]
---
header: 
  seq: 2323
  stamp: 
    secs: 1534219944
    nsecs: 599207447
  frame_id: "imu"
orientation: 
  x: -0.06034133
  y: 0.0505933
  z: 0.07716914
  w: 0.99390358
orientation_covariance: [0.0001, 0.0, 0.0, 0.0, 0.0001, 0.0, 0.0, 0.0, 0.0001]
angular_velocity: 
  x: 0.0
  y: 0.00119842
  z: -0.00079895
angular_velocity_covariance: [0.0001, 0.0, 0.0, 0.0, 0.0001, 0.0, 0.0, 0.0, 0.0001]
linear_acceleration: 
  x: -0.01122783
  y: -0.01158259
  z: 0.10193428
linear_acceleration_covariance: [0.0001, 0.0, 0.0, 0.0, 0.0001, 0.0, 0.0, 0.0, 0.0001]
---
header: 
  seq: 2324
  stamp: 
    secs: 1534219944
    nsecs: 658282527
  frame_id: "imu"
orientation: 
  x: -0.06133879
  y: 0.05053117
  z: 0.08051602
  w: 0.9935801
orientation_covariance: [0.0001, 0.0, 0.0, 0.0, 0.0001, 0.0, 0.0, 0.0, 0.0001]
angular_velocity: 
  x: -0.00093211
  y: 0.00332895
  z: -0.00093211
angular_velocity_covariance: [0.0001, 0.0, 0.0, 0.0, 0.0001, 0.0, 0.0, 0.0, 0.0001]
linear_acceleration: 
  x: -0.01132741
  y: -0.01158259
  z: 0.10178491
linear_acceleration_covariance: [0.0001, 0.0, 0.0, 0.0, 0.0001, 0.0, 0.0, 0.0, 0.0001]
---
header: 
  seq: 2325
  stamp: 
    secs: 1534219944
    nsecs: 717375927
  frame_id: "imu"
orientation: 
  x: -0.06150853
  y: 0.05035588
  z: 0.0831634
  w: 0.99336046
orientation_covariance: [0.0001, 0.0, 0.0, 0.0, 0.0001, 0.0, 0.0, 0.0, 0.0001]
angular_velocity: 
  x: 0.00106526
  y: 0.0041279
  z: -0.00013316
angular_velocity_covariance: [0.0001, 0.0, 0.0, 0.0, 0.0001, 0.0, 0.0, 0.0, 0.0001]
linear_acceleration: 
  x: -0.01122783
  y: -0.01135231
  z: 0.10195295
linear_acceleration_covariance: [0.0001, 0.0, 0.0, 0.0, 0.0001, 0.0, 0.0, 0.0, 0.0001]
---
header: 
  seq: 2326
  stamp: 
    secs: 1534219944
    nsecs: 773961463
  frame_id: "imu"
orientation: 
  x: -0.061032
  y: 0.05039316
  z: 0.08402585
  w: 0.99331528
orientation_covariance: [0.0001, 0.0, 0.0, 0.0, 0.0001, 0.0, 0.0, 0.0, 0.0001]
angular_velocity: 
  x: -0.00026632
  y: 0.00306264
  z: -0.00093211
angular_velocity_covariance: [0.0001, 0.0, 0.0, 0.0, 0.0001, 0.0, 0.0, 0.0, 0.0001]
linear_acceleration: 
  x: -0.01132741
  y: -0.01124028
  z: 0.10187204
linear_acceleration_covariance: [0.0001, 0.0, 0.0, 0.0, 0.0001, 0.0, 0.0, 0.0, 0.0001]
---
header: 
  seq: 2327
  stamp: 
    secs: 1534219944
    nsecs: 833088171
  frame_id: "imu"
orientation: 
  x: -0.06077829
  y: 0.05043115
  z: 0.08426028
  w: 0.99330908
orientation_covariance: [0.0001, 0.0, 0.0, 0.0, 0.0001, 0.0, 0.0, 0.0, 0.0001]
angular_velocity: 
  x: -0.00079895
  y: 0.00279632
  z: -0.00093211
angular_velocity_covariance: [0.0001, 0.0, 0.0, 0.0, 0.0001, 0.0, 0.0, 0.0, 0.0001]
linear_acceleration: 
  x: -0.01132741
  y: -0.01157014
  z: 0.10195295
linear_acceleration_covariance: [0.0001, 0.0, 0.0, 0.0, 0.0001, 0.0, 0.0, 0.0, 0.0001]
---
header: 
  seq: 2328
  stamp: 
    secs: 1534219944
    nsecs: 892113549
  frame_id: "imu"
orientation: 
  x: -0.0604319
  y: 0.05040275
  z: 0.08393024
  w: 0.99335968
orientation_covariance: [0.0001, 0.0, 0.0, 0.0, 0.0001, 0.0, 0.0, 0.0, 0.0001]
angular_velocity: 
  x: -0.00079895
  y: 0.00332895
  z: 0.0
angular_velocity_covariance: [0.0001, 0.0, 0.0, 0.0, 0.0001, 0.0, 0.0, 0.0, 0.0001]
linear_acceleration: 
  x: -0.01133364
  y: -0.01165728
  z: 0.10185337
linear_acceleration_covariance: [0.0001, 0.0, 0.0, 0.0, 0.0001, 0.0, 0.0, 0.0, 0.0001]
---
header: 
  seq: 2329
  stamp: 
    secs: 1534219944
    nsecs: 947478279
  frame_id: "imu"
orientation: 
  x: -0.0602191
  y: 0.05007294
  z: 0.08332344
  w: 0.99344033
orientation_covariance: [0.0001, 0.0, 0.0, 0.0, 0.0001, 0.0, 0.0, 0.0, 0.0001]
angular_velocity: 
  x: 0.00026632
  y: 0.00173105
  z: -0.00106526
angular_velocity_covariance: [0.0001, 0.0, 0.0, 0.0, 0.0001, 0.0, 0.0, 0.0, 0.0001]
linear_acceleration: 
  x: -0.01122161
  y: -0.01138343
  z: 0.10193428
linear_acceleration_covariance: [0.0001, 0.0, 0.0, 0.0, 0.0001, 0.0, 0.0, 0.0, 0.0001]
---
header: 
  seq: 2330
  stamp: 
    secs: 1534219945
    nsecs:   4174878
  frame_id: "imu"
orientation: 
  x: -0.05988754
  y: 0.05014029
  z: 0.0828837
  w: 0.99349368
orientation_covariance: [0.0001, 0.0, 0.0, 0.0, 0.0001, 0.0, 0.0, 0.0, 0.0001]
angular_velocity: 
  x: 0.00079895
  y: 0.00013316
  z: -0.00106526
angular_velocity_covariance: [0.0001, 0.0, 0.0, 0.0, 0.0001, 0.0, 0.0, 0.0, 0.0001]
linear_acceleration: 
  x: -0.01146434
  y: -0.01162616
  z: 0.10205875
linear_acceleration_covariance: [0.0001, 0.0, 0.0, 0.0, 0.0001, 0.0, 0.0, 0.0, 0.0001]
---
header: 
  seq: 2331
  stamp: 
    secs: 1534219945
    nsecs:  61863479
  frame_id: "imu"
orientation: 
  x: -0.05988918
  y: 0.05033105
  z: 0.08227206
  w: 0.9935348
orientation_covariance: [0.0001, 0.0, 0.0, 0.0, 0.0001, 0.0, 0.0, 0.0, 0.0001]
angular_velocity: 
  x: 0.00239685
  y: 0.00346211
  z: -0.0015979
angular_velocity_covariance: [0.0001, 0.0, 0.0, 0.0, 0.0001, 0.0, 0.0, 0.0, 0.0001]
linear_acceleration: 
  x: -0.01160126
  y: -0.01150791
  z: 0.10227659
linear_acceleration_covariance: [0.0001, 0.0, 0.0, 0.0, 0.0001, 0.0, 0.0, 0.0, 0.0001]
---
header: 
  seq: 2332
  stamp: 
    secs: 1534219945
    nsecs: 118441120
  frame_id: "imu"
orientation: 
  x: -0.05997134
  y: 0.05042868
  z: 0.08176794
  w: 0.99356663
orientation_covariance: [0.0001, 0.0, 0.0, 0.0, 0.0001, 0.0, 0.0, 0.0, 0.0001]
angular_velocity: 
  x: -0.00026632
  y: 0.00346211
  z: 0.0015979
angular_velocity_covariance: [0.0001, 0.0, 0.0, 0.0, 0.0001, 0.0, 0.0, 0.0, 0.0001]
linear_acceleration: 
  x: -0.01140832
  y: -0.01159504
  z: 0.10189693
linear_acceleration_covariance: [0.0001, 0.0, 0.0, 0.0, 0.0001, 0.0, 0.0, 0.0, 0.0001]
---
header: 
  seq: 2333
  stamp: 
    secs: 1534219945
    nsecs: 176274659
  frame_id: "imu"
orientation: 
  x: -0.05949014
  y: 0.05026769
  z: 0.08006872
  w: 0.99374205
orientation_covariance: [0.0001, 0.0, 0.0, 0.0, 0.0001, 0.0, 0.0, 0.0, 0.0001]
angular_velocity: 
  x: 0.0
  y: 0.00173105
  z: 0.00053263
angular_velocity_covariance: [0.0001, 0.0, 0.0, 0.0, 0.0001, 0.0, 0.0, 0.0, 0.0001]
linear_acceleration: 
  x: -0.01105356
  y: -0.01151413
  z: 0.10197785
linear_acceleration_covariance: [0.0001, 0.0, 0.0, 0.0, 0.0001, 0.0, 0.0, 0.0, 0.0001]
---
header: 
  seq: 2334
  stamp: 
    secs: 1534219945
    nsecs: 231738017
  frame_id: "imu"
orientation: 
  x: -0.05961896
  y: 0.05018903
  z: 0.07911371
  w: 0.99381477
orientation_covariance: [0.0001, 0.0, 0.0, 0.0, 0.0001, 0.0, 0.0, 0.0, 0.0001]
angular_velocity: 
  x: -0.00026632
  y: 0.00359527
  z: 0.00146474
angular_velocity_covariance: [0.0001, 0.0, 0.0, 0.0, 0.0001, 0.0, 0.0, 0.0, 0.0001]
linear_acceleration: 
  x: -0.01123406
  y: -0.01155147
  z: 0.1020712
linear_acceleration_covariance: [0.0001, 0.0, 0.0, 0.0, 0.0001, 0.0, 0.0, 0.0, 0.0001]
---
header: 
  seq: 2335
  stamp: 
    secs: 1534219945
    nsecs: 287070535
  frame_id: "imu"
orientation: 
  x: -0.05995159
  y: 0.05046508
  z: 0.07918433
  w: 0.99377507
orientation_covariance: [0.0001, 0.0, 0.0, 0.0, 0.0001, 0.0, 0.0, 0.0, 0.0001]
angular_velocity: 
  x: -0.00079895
  y: 0.00239685
  z: -0.00066579
angular_velocity_covariance: [0.0001, 0.0, 0.0, 0.0, 0.0001, 0.0, 0.0, 0.0, 0.0001]
linear_acceleration: 
  x: -0.01161993
  y: -0.01152035
  z: 0.10181603
linear_acceleration_covariance: [0.0001, 0.0, 0.0, 0.0, 0.0001, 0.0, 0.0, 0.0, 0.0001]
---
header: 
  seq: 2336
  stamp: 
    secs: 1534219945
    nsecs: 343652496
  frame_id: "imu"
orientation: 
  x: -0.06014032
  y: 0.05062612
  z: 0.07918838
  w: 0.99375516
orientation_covariance: [0.0001, 0.0, 0.0, 0.0, 0.0001, 0.0, 0.0, 0.0, 0.0001]
angular_velocity: 
  x: -0.00079895
  y: 0.00119842
  z: -0.00213053
angular_velocity_covariance: [0.0001, 0.0, 0.0, 0.0, 0.0001, 0.0, 0.0, 0.0, 0.0001]
linear_acceleration: 
  x: -0.01130874
  y: -0.01175686
  z: 0.10189693
linear_acceleration_covariance: [0.0001, 0.0, 0.0, 0.0, 0.0001, 0.0, 0.0, 0.0, 0.0001]
---
header: 
  seq: 2337
  stamp: 
    secs: 1534219945
    nsecs: 401484682
  frame_id: "imu"
orientation: 
  x: -0.06013407
  y: 0.05058138
  z: 0.07917076
  w: 0.99375933
orientation_covariance: [0.0001, 0.0, 0.0, 0.0, 0.0001, 0.0, 0.0, 0.0, 0.0001]
angular_velocity: 
  x: -0.00026632
  y: 0.00119842
  z: 0.00053263
angular_velocity_covariance: [0.0001, 0.0, 0.0, 0.0, 0.0001, 0.0, 0.0, 0.0, 0.0001]
linear_acceleration: 
  x: -0.01145189
  y: -0.01147679
  z: 0.10191561
linear_acceleration_covariance: [0.0001, 0.0, 0.0, 0.0, 0.0001, 0.0, 0.0, 0.0, 0.0001]
---
header: 
  seq: 2338
  stamp: 
    secs: 1534219945
    nsecs: 458119052
  frame_id: "imu"
orientation: 
  x: -0.06005865
  y: 0.05043172
  z: 0.07918148
  w: 0.9937706
orientation_covariance: [0.0001, 0.0, 0.0, 0.0, 0.0001, 0.0, 0.0, 0.0, 0.0001]
angular_velocity: 
  x: -0.00026632
  y: 0.00239685
  z: 0.0015979
angular_velocity_covariance: [0.0001, 0.0, 0.0, 0.0, 0.0001, 0.0, 0.0, 0.0, 0.0001]
linear_acceleration: 
  x: -0.01115937
  y: -0.01164483
  z: 0.1015484
linear_acceleration_covariance: [0.0001, 0.0, 0.0, 0.0, 0.0001, 0.0, 0.0, 0.0, 0.0001]
---
header: 
  seq: 2339
  stamp: 
    secs: 1534219945
    nsecs: 515896539
  frame_id: "imu"
orientation: 
  x: -0.05977645
  y: 0.05056623
  z: 0.07762511
  w: 0.99390352
orientation_covariance: [0.0001, 0.0, 0.0, 0.0, 0.0001, 0.0, 0.0, 0.0, 0.0001]
angular_velocity: 
  x: -0.00053263
  y: 0.00346211
  z: 0.00079895
angular_velocity_covariance: [0.0001, 0.0, 0.0, 0.0, 0.0001, 0.0, 0.0, 0.0, 0.0001]
linear_acceleration: 
  x: -0.01128385
  y: -0.01146434
  z: 0.10222057
linear_acceleration_covariance: [0.0001, 0.0, 0.0, 0.0, 0.0001, 0.0, 0.0, 0.0, 0.0001]
---
header: 
  seq: 2340
  stamp: 
    secs: 1534219945
    nsecs: 571292707
  frame_id: "imu"
orientation: 
  x: -0.05936487
  y: 0.05057468
  z: 0.07549282
  w: 0.99409193
orientation_covariance: [0.0001, 0.0, 0.0, 0.0, 0.0001, 0.0, 0.0, 0.0, 0.0001]
angular_velocity: 
  x: -0.00173105
  y: 0.00173105
  z: 0.00053263
angular_velocity_covariance: [0.0001, 0.0, 0.0, 0.0, 0.0001, 0.0, 0.0, 0.0, 0.0001]
linear_acceleration: 
  x: -0.01109091
  y: -0.01156392
  z: 0.10208365
linear_acceleration_covariance: [0.0001, 0.0, 0.0, 0.0, 0.0001, 0.0, 0.0, 0.0, 0.0001]
---
header: 
  seq: 2341
  stamp: 
    secs: 1534219945
    nsecs: 627816690
  frame_id: "imu"
orientation: 
  x: -0.05954067
  y: 0.05055825
  z: 0.07494326
  w: 0.99412388
orientation_covariance: [0.0001, 0.0, 0.0, 0.0, 0.0001, 0.0, 0.0, 0.0, 0.0001]
angular_velocity: 
  x: -0.00013316
  y: 0.00292948
  z: -0.00066579
angular_velocity_covariance: [0.0001, 0.0, 0.0, 0.0, 0.0001, 0.0, 0.0, 0.0, 0.0001]
linear_acceleration: 
  x: -0.01130874
  y: -0.01151413
  z: 0.10214589
linear_acceleration_covariance: [0.0001, 0.0, 0.0, 0.0, 0.0001, 0.0, 0.0, 0.0, 0.0001]
---
header: 
  seq: 2342
  stamp: 
    secs: 1534219945
    nsecs: 685656943
  frame_id: "imu"
orientation: 
  x: -0.05997137
  y: 0.05067386
  z: 0.07616686
  w: 0.99399918
orientation_covariance: [0.0001, 0.0, 0.0, 0.0, 0.0001, 0.0, 0.0, 0.0, 0.0001]
angular_velocity: 
  x: -0.00186421
  y: 0.00346211
  z: 0.00013316
angular_velocity_covariance: [0.0001, 0.0, 0.0, 0.0, 0.0001, 0.0, 0.0, 0.0, 0.0001]
linear_acceleration: 
  x: -0.01117804
  y: -0.01152035
  z: 0.10187204
linear_acceleration_covariance: [0.0001, 0.0, 0.0, 0.0, 0.0001, 0.0, 0.0, 0.0, 0.0001]
---
header: 
  seq: 2343
  stamp: 
    secs: 1534219945
    nsecs: 742361522
  frame_id: "imu"
orientation: 
  x: -0.06025838
  y: 0.05066247
  z: 0.07684867
  w: 0.99392986
orientation_covariance: [0.0001, 0.0, 0.0, 0.0, 0.0001, 0.0, 0.0, 0.0, 0.0001]
angular_velocity: 
  x: -0.00053263
  y: 0.00119842
  z: 0.00053263
angular_velocity_covariance: [0.0001, 0.0, 0.0, 0.0, 0.0001, 0.0, 0.0, 0.0, 0.0001]
linear_acceleration: 
  x: -0.01113447
  y: -0.01146434
  z: 0.1022019
linear_acceleration_covariance: [0.0001, 0.0, 0.0, 0.0, 0.0001, 0.0, 0.0, 0.0, 0.0001]
---
header: 
  seq: 2344
  stamp: 
    secs: 1534219945
    nsecs: 797898211
  frame_id: "imu"
orientation: 
  x: -0.06041965
  y: 0.05060373
  z: 0.07760104
  w: 0.9938646
orientation_covariance: [0.0001, 0.0, 0.0, 0.0, 0.0001, 0.0, 0.0, 0.0, 0.0001]
angular_velocity: 
  x: -0.00106526
  y: 0.00253
  z: 0.00173105
angular_velocity_covariance: [0.0001, 0.0, 0.0, 0.0, 0.0001, 0.0, 0.0, 0.0, 0.0001]
linear_acceleration: 
  x: -0.01119049
  y: -0.01145189
  z: 0.10178491
linear_acceleration_covariance: [0.0001, 0.0, 0.0, 0.0, 0.0001, 0.0, 0.0, 0.0, 0.0001]
---
header: 
  seq: 2345
  stamp: 
    secs: 1534219945
    nsecs: 855524715
  frame_id: "imu"
orientation: 
  x: -0.06039806
  y: 0.05049843
  z: 0.07804171
  w: 0.99383676
orientation_covariance: [0.0001, 0.0, 0.0, 0.0, 0.0001, 0.0, 0.0, 0.0, 0.0001]
angular_velocity: 
  x: -0.00079895
  y: 0.00332895
  z: 0.0
angular_velocity_covariance: [0.0001, 0.0, 0.0, 0.0, 0.0001, 0.0, 0.0, 0.0, 0.0001]
linear_acceleration: 
  x: -0.01123406
  y: -0.01134609
  z: 0.10160442
linear_acceleration_covariance: [0.0001, 0.0, 0.0, 0.0, 0.0001, 0.0, 0.0, 0.0, 0.0001]
---
header: 
  seq: 2346
  stamp: 
    secs: 1534219945
    nsecs: 910856764
  frame_id: "imu"
orientation: 
  x: -0.06136671
  y: 0.05018659
  z: 0.08205742
  w: 0.99346972
orientation_covariance: [0.0001, 0.0, 0.0, 0.0, 0.0001, 0.0, 0.0, 0.0, 0.0001]
angular_velocity: 
  x: -0.00053263
  y: 0.00199737
  z: 0.0
angular_velocity_covariance: [0.0001, 0.0, 0.0, 0.0, 0.0001, 0.0, 0.0, 0.0, 0.0001]
linear_acceleration: 
  x: -0.01160749
  y: -0.01170707
  z: 0.10203386
linear_acceleration_covariance: [0.0001, 0.0, 0.0, 0.0, 0.0001, 0.0, 0.0, 0.0, 0.0001]
---
header: 
  seq: 2347
  stamp: 
    secs: 1534219945
    nsecs: 967448510
  frame_id: "imu"
orientation: 
  x: -0.06142975
  y: 0.05018245
  z: 0.08446948
  w: 0.9932639
orientation_covariance: [0.0001, 0.0, 0.0, 0.0, 0.0001, 0.0, 0.0, 0.0, 0.0001]
angular_velocity: 
  x: 0.00026632
  y: 0.00239685
  z: 0.00039947
angular_velocity_covariance: [0.0001, 0.0, 0.0, 0.0, 0.0001, 0.0, 0.0, 0.0, 0.0001]
linear_acceleration: 
  x: -0.01125895
  y: -0.01130874
  z: 0.10205253
linear_acceleration_covariance: [0.0001, 0.0, 0.0, 0.0, 0.0001, 0.0, 0.0, 0.0, 0.0001]
---
header: 
  seq: 2348
  stamp: 
    secs: 1534219946
    nsecs:  25277822
  frame_id: "imu"
orientation: 
  x: -0.06107837
  y: 0.05018751
  z: 0.08354142
  w: 0.99336374
orientation_covariance: [0.0001, 0.0, 0.0, 0.0, 0.0001, 0.0, 0.0, 0.0, 0.0001]
angular_velocity: 
  x: -0.00093211
  y: 0.00199737
  z: -0.00026632
angular_velocity_covariance: [0.0001, 0.0, 0.0, 0.0, 0.0001, 0.0, 0.0, 0.0, 0.0001]
linear_acceleration: 
  x: -0.01127762
  y: -0.01141455
  z: 0.10174134
linear_acceleration_covariance: [0.0001, 0.0, 0.0, 0.0, 0.0001, 0.0, 0.0, 0.0, 0.0001]
---
header: 
  seq: 2349
  stamp: 
    secs: 1534219946
    nsecs:  81867013
  frame_id: "imu"
orientation: 
  x: -0.06059073
  y: 0.05023931
  z: 0.0821534
  w: 0.99350685
orientation_covariance: [0.0001, 0.0, 0.0, 0.0, 0.0001, 0.0, 0.0, 0.0, 0.0001]
angular_velocity: 
  x: -0.0015979
  y: 0.00199737
  z: 0.00079895
angular_velocity_covariance: [0.0001, 0.0, 0.0, 0.0, 0.0001, 0.0, 0.0, 0.0, 0.0001]
linear_acceleration: 
  x: -0.01133364
  y: -0.01156392
  z: 0.10173512
linear_acceleration_covariance: [0.0001, 0.0, 0.0, 0.0, 0.0001, 0.0, 0.0, 0.0, 0.0001]
---
header: 
  seq: 2350
  stamp: 
    secs: 1534219946
    nsecs: 139711595
  frame_id: "imu"
orientation: 
  x: -0.06078393
  y: 0.05001865
  z: 0.082997
  w: 0.99343592
orientation_covariance: [0.0001, 0.0, 0.0, 0.0, 0.0001, 0.0, 0.0, 0.0, 0.0001]
angular_velocity: 
  x: -0.00066579
  y: 0.00266316
  z: -0.00026632
angular_velocity_covariance: [0.0001, 0.0, 0.0, 0.0, 0.0001, 0.0, 0.0, 0.0, 0.0001]
linear_acceleration: 
  x: -0.01114692
  y: -0.01148301
  z: 0.10167287
linear_acceleration_covariance: [0.0001, 0.0, 0.0, 0.0, 0.0001, 0.0, 0.0, 0.0, 0.0001]
---
header: 
  seq: 2351
  stamp: 
    secs: 1534219946
    nsecs: 195026139
  frame_id: "imu"
orientation: 
  x: -0.06115413
  y: 0.04990206
  z: 0.0847895
  w: 0.99326771
orientation_covariance: [0.0001, 0.0, 0.0, 0.0, 0.0001, 0.0, 0.0, 0.0, 0.0001]
angular_velocity: 
  x: -0.00013316
  y: 0.00146474
  z: -0.00026632
angular_velocity_covariance: [0.0001, 0.0, 0.0, 0.0, 0.0001, 0.0, 0.0, 0.0, 0.0001]
linear_acceleration: 
  x: -0.01125895
  y: -0.01172574
  z: 0.10202763
linear_acceleration_covariance: [0.0001, 0.0, 0.0, 0.0, 0.0001, 0.0, 0.0, 0.0, 0.0001]
---
header: 
  seq: 2352
  stamp: 
    secs: 1534219946
    nsecs: 251619442
  frame_id: "imu"
orientation: 
  x: -0.06084539
  y: 0.04964443
  z: 0.08511285
  w: 0.99327201
orientation_covariance: [0.0001, 0.0, 0.0, 0.0, 0.0001, 0.0, 0.0, 0.0, 0.0001]
angular_velocity: 
  x: 0.0
  y: 0.00213053
  z: -0.00106526
angular_velocity_covariance: [0.0001, 0.0, 0.0, 0.0, 0.0001, 0.0, 0.0, 0.0, 0.0001]
linear_acceleration: 
  x: -0.01099133
  y: -0.0115577
  z: 0.10232016
linear_acceleration_covariance: [0.0001, 0.0, 0.0, 0.0, 0.0001, 0.0, 0.0, 0.0, 0.0001]
---
header: 
  seq: 2353
  stamp: 
    secs: 1534219946
    nsecs: 309437585
  frame_id: "imu"
orientation: 
  x: -0.06025598
  y: 0.04957942
  z: 0.08371221
  w: 0.99343014
orientation_covariance: [0.0001, 0.0, 0.0, 0.0, 0.0001, 0.0, 0.0, 0.0, 0.0001]
angular_velocity: 
  x: 0.00026632
  y: 0.00186421
  z: 0.00013316
angular_velocity_covariance: [0.0001, 0.0, 0.0, 0.0, 0.0001, 0.0, 0.0, 0.0, 0.0001]
linear_acceleration: 
  x: -0.01134609
  y: -0.01178175
  z: 0.10205875
linear_acceleration_covariance: [0.0001, 0.0, 0.0, 0.0, 0.0001, 0.0, 0.0, 0.0, 0.0001]
---
header: 
  seq: 2354
  stamp: 
    secs: 1534219946
    nsecs: 366026152
  frame_id: "imu"
orientation: 
  x: -0.05995095
  y: 0.04970778
  z: 0.08269311
  w: 0.99352753
orientation_covariance: [0.0001, 0.0, 0.0, 0.0, 0.0001, 0.0, 0.0, 0.0, 0.0001]
angular_velocity: 
  x: -0.00079895
  y: 0.0015979
  z: -0.00013316
angular_velocity_covariance: [0.0001, 0.0, 0.0, 0.0, 0.0001, 0.0, 0.0, 0.0, 0.0001]
linear_acceleration: 
  x: -0.01125895
  y: -0.01162616
  z: 0.10197785
linear_acceleration_covariance: [0.0001, 0.0, 0.0, 0.0, 0.0001, 0.0, 0.0, 0.0, 0.0001]
---
header: 
  seq: 2355
  stamp: 
    secs: 1534219946
    nsecs: 421388005
  frame_id: "imu"
orientation: 
  x: -0.05922562
  y: 0.04981755
  z: 0.0798376
  w: 0.99379909
orientation_covariance: [0.0001, 0.0, 0.0, 0.0, 0.0001, 0.0, 0.0, 0.0, 0.0001]
angular_velocity: 
  x: 0.00066579
  y: 0.00292948
  z: 0.00013316
angular_velocity_covariance: [0.0001, 0.0, 0.0, 0.0, 0.0001, 0.0, 0.0, 0.0, 0.0001]
linear_acceleration: 
  x: -0.0111158
  y: -0.01128385
  z: 0.10169777
linear_acceleration_covariance: [0.0001, 0.0, 0.0, 0.0, 0.0001, 0.0, 0.0, 0.0, 0.0001]
---
header: 
  seq: 2356
  stamp: 
    secs: 1534219946
    nsecs: 479211145
  frame_id: "imu"
orientation: 
  x: -0.05915132
  y: 0.05009582
  z: 0.07811549
  w: 0.99392641
orientation_covariance: [0.0001, 0.0, 0.0, 0.0, 0.0001, 0.0, 0.0, 0.0, 0.0001]
angular_velocity: 
  x: -0.00079895
  y: 0.00292948
  z: 0.0015979
angular_velocity_covariance: [0.0001, 0.0, 0.0, 0.0, 0.0001, 0.0, 0.0, 0.0, 0.0001]
linear_acceleration: 
  x: -0.01119671
  y: -0.01157014
  z: 0.10208987
linear_acceleration_covariance: [0.0001, 0.0, 0.0, 0.0, 0.0001, 0.0, 0.0, 0.0, 0.0001]
---
header: 
  seq: 2357
  stamp: 
    secs: 1534219946
    nsecs: 534545102
  frame_id: "imu"
orientation: 
  x: -0.05873521
  y: 0.05027473
  z: 0.0753419
  w: 0.99415606
orientation_covariance: [0.0001, 0.0, 0.0, 0.0, 0.0001, 0.0, 0.0, 0.0, 0.0001]
angular_velocity: 
  x: 0.00066579
  y: 0.00452737
  z: 0.00199737
angular_velocity_covariance: [0.0001, 0.0, 0.0, 0.0, 0.0001, 0.0, 0.0, 0.0, 0.0001]
linear_acceleration: 
  x: -0.01141455
  y: -0.01149546
  z: 0.1020712
linear_acceleration_covariance: [0.0001, 0.0, 0.0, 0.0, 0.0001, 0.0, 0.0, 0.0, 0.0001]
---
header: 
  seq: 2358
  stamp: 
    secs: 1534219946
    nsecs: 591135074
  frame_id: "imu"
orientation: 
  x: -0.05875033
  y: 0.05061575
  z: 0.07369234
  w: 0.9942615
orientation_covariance: [0.0001, 0.0, 0.0, 0.0, 0.0001, 0.0, 0.0, 0.0, 0.0001]
angular_velocity: 
  x: -0.00146474
  y: 0.00346211
  z: 0.0
angular_velocity_covariance: [0.0001, 0.0, 0.0, 0.0, 0.0001, 0.0, 0.0, 0.0, 0.0001]
linear_acceleration: 
  x: -0.01132119
  y: -0.01143322
  z: 0.10172267
linear_acceleration_covariance: [0.0001, 0.0, 0.0, 0.0, 0.0001, 0.0, 0.0, 0.0, 0.0001]
---
header: 
  seq: 2359
  stamp: 
    secs: 1534219946
    nsecs: 648969247
  frame_id: "imu"
orientation: 
  x: -0.05950316
  y: 0.05066814
  z: 0.07511114
  w: 0.9941079
orientation_covariance: [0.0001, 0.0, 0.0, 0.0, 0.0001, 0.0, 0.0, 0.0, 0.0001]
angular_velocity: 
  x: 0.00066579
  y: 0.00239685
  z: -0.00053263
angular_velocity_covariance: [0.0001, 0.0, 0.0, 0.0, 0.0001, 0.0, 0.0, 0.0, 0.0001]
linear_acceleration: 
  x: -0.01137721
  y: -0.01170707
  z: 0.10206498
linear_acceleration_covariance: [0.0001, 0.0, 0.0, 0.0, 0.0001, 0.0, 0.0, 0.0, 0.0001]
---
header: 
  seq: 2360
  stamp: 
    secs: 1534219946
    nsecs: 704282334
  frame_id: "imu"
orientation: 
  x: -0.06008464
  y: 0.05070581
  z: 0.07679512
  w: 0.99394226
orientation_covariance: [0.0001, 0.0, 0.0, 0.0, 0.0001, 0.0, 0.0, 0.0, 0.0001]
angular_velocity: 
  x: 0.00013316
  y: 0.00173105
  z: 0.00119842
angular_velocity_covariance: [0.0001, 0.0, 0.0, 0.0, 0.0001, 0.0, 0.0, 0.0, 0.0001]
linear_acceleration: 
  x: -0.01125895
  y: -0.0114021
  z: 0.10227036
linear_acceleration_covariance: [0.0001, 0.0, 0.0, 0.0, 0.0001, 0.0, 0.0, 0.0, 0.0001]
---
header: 
  seq: 2361
  stamp: 
    secs: 1534219946
    nsecs: 760889377
  frame_id: "imu"
orientation: 
  x: -0.06034395
  y: 0.05057762
  z: 0.07917098
  w: 0.99374676
orientation_covariance: [0.0001, 0.0, 0.0, 0.0, 0.0001, 0.0, 0.0, 0.0, 0.0001]
angular_velocity: 
  x: -0.00026632
  y: 0.00106526
  z: -0.00079895
angular_velocity_covariance: [0.0001, 0.0, 0.0, 0.0, 0.0001, 0.0, 0.0, 0.0, 0.0001]
linear_acceleration: 
  x: -0.01141455
  y: -0.01135853
  z: 0.10217079
linear_acceleration_covariance: [0.0001, 0.0, 0.0, 0.0, 0.0001, 0.0, 0.0, 0.0, 0.0001]
---
header: 
  seq: 2362
  stamp: 
    secs: 1534219946
    nsecs: 818759097
  frame_id: "imu"
orientation: 
  x: -0.0609625
  y: 0.05042198
  z: 0.08187921
  w: 0.99349743
orientation_covariance: [0.0001, 0.0, 0.0, 0.0, 0.0001, 0.0, 0.0, 0.0, 0.0001]
angular_velocity: 
  x: 0.00026632
  y: 0.00133158
  z: 0.00066579
angular_velocity_covariance: [0.0001, 0.0, 0.0, 0.0, 0.0001, 0.0, 0.0, 0.0, 0.0001]
linear_acceleration: 
  x: -0.01129629
  y: -0.01158259
  z: 0.10219568
linear_acceleration_covariance: [0.0001, 0.0, 0.0, 0.0, 0.0001, 0.0, 0.0, 0.0, 0.0001]
---
header: 
  seq: 2363
  stamp: 
    secs: 1534219946
    nsecs: 875286459
  frame_id: "imu"
orientation: 
  x: -0.06043169
  y: 0.05025479
  z: 0.08190516
  w: 0.99353617
orientation_covariance: [0.0001, 0.0, 0.0, 0.0, 0.0001, 0.0, 0.0, 0.0, 0.0001]
angular_velocity: 
  x: -0.00053263
  y: 0.00093211
  z: 0.00053263
angular_velocity_covariance: [0.0001, 0.0, 0.0, 0.0, 0.0001, 0.0, 0.0, 0.0, 0.0001]
linear_acceleration: 
  x: -0.01135231
  y: -0.01150791
  z: 0.10224547
linear_acceleration_covariance: [0.0001, 0.0, 0.0, 0.0, 0.0001, 0.0, 0.0, 0.0, 0.0001]
---
header: 
  seq: 2364
  stamp: 
    secs: 1534219946
    nsecs: 933124588
  frame_id: "imu"
orientation: 
  x: -0.05927958
  y: 0.05037049
  z: 0.07866226
  w: 0.99386168
orientation_covariance: [0.0001, 0.0, 0.0, 0.0, 0.0001, 0.0, 0.0, 0.0, 0.0001]
angular_velocity: 
  x: -0.00026632
  y: 0.00266316
  z: -0.00066579
angular_velocity_covariance: [0.0001, 0.0, 0.0, 0.0, 0.0001, 0.0, 0.0, 0.0, 0.0001]
linear_acceleration: 
  x: -0.01135853
  y: -0.01152658
  z: 0.10186581
linear_acceleration_covariance: [0.0001, 0.0, 0.0, 0.0, 0.0001, 0.0, 0.0, 0.0, 0.0001]
---
header: 
  seq: 2365
  stamp: 
    secs: 1534219946
    nsecs: 989700143
  frame_id: "imu"
orientation: 
  x: -0.05912679
  y: 0.05037125
  z: 0.0769095
  w: 0.99400795
orientation_covariance: [0.0001, 0.0, 0.0, 0.0, 0.0001, 0.0, 0.0, 0.0, 0.0001]
angular_velocity: 
  x: 0.0
  y: 0.00213053
  z: -0.00133158
angular_velocity_covariance: [0.0001, 0.0, 0.0, 0.0, 0.0001, 0.0, 0.0, 0.0, 0.0001]
linear_acceleration: 
  x: -0.01118426
  y: -0.01125273
  z: 0.10227036
linear_acceleration_covariance: [0.0001, 0.0, 0.0, 0.0, 0.0001, 0.0, 0.0, 0.0, 0.0001]
---
header: 
  seq: 2366
  stamp: 
    secs: 1534219947
    nsecs:  48847047
  frame_id: "imu"
orientation: 
  x: -0.05944256
  y: 0.05056114
  z: 0.07664047
  w: 0.99400026
orientation_covariance: [0.0001, 0.0, 0.0, 0.0, 0.0001, 0.0, 0.0, 0.0, 0.0001]
angular_velocity: 
  x: 0.0
  y: 0.00106526
  z: -0.00079895
angular_velocity_covariance: [0.0001, 0.0, 0.0, 0.0, 0.0001, 0.0, 0.0, 0.0, 0.0001]
linear_acceleration: 
  x: -0.01099755
  y: -0.01146434
  z: 0.10186581
linear_acceleration_covariance: [0.0001, 0.0, 0.0, 0.0, 0.0001, 0.0, 0.0, 0.0, 0.0001]
---
header: 
  seq: 2367
  stamp: 
    secs: 1534219947
    nsecs: 104132148
  frame_id: "imu"
orientation: 
  x: -0.05969862
  y: 0.05066242
  z: 0.07647061
  w: 0.99399281
orientation_covariance: [0.0001, 0.0, 0.0, 0.0, 0.0001, 0.0, 0.0, 0.0, 0.0001]
angular_velocity: 
  x: -0.00039947
  y: 0.00199737
  z: 0.0
angular_velocity_covariance: [0.0001, 0.0, 0.0, 0.0, 0.0001, 0.0, 0.0, 0.0, 0.0001]
linear_acceleration: 
  x: -0.01135853
  y: -0.01135231
  z: 0.10205875
linear_acceleration_covariance: [0.0001, 0.0, 0.0, 0.0, 0.0001, 0.0, 0.0, 0.0, 0.0001]
---
header: 
  seq: 2368
  stamp: 
    secs: 1534219947
    nsecs: 163221456
  frame_id: "imu"
orientation: 
  x: -0.06065904
  y: 0.05042844
  z: 0.08064278
  w: 0.99361676
orientation_covariance: [0.0001, 0.0, 0.0, 0.0, 0.0001, 0.0, 0.0, 0.0, 0.0001]
angular_velocity: 
  x: 0.00133158
  y: 0.00332895
  z: 0.00079895
angular_velocity_covariance: [0.0001, 0.0, 0.0, 0.0, 0.0001, 0.0, 0.0, 0.0, 0.0001]
linear_acceleration: 
  x: -0.01137098
  y: -0.01137098
  z: 0.10199652
linear_acceleration_covariance: [0.0001, 0.0, 0.0, 0.0, 0.0001, 0.0, 0.0, 0.0, 0.0001]
---
header: 
  seq: 2369
  stamp: 
    secs: 1534219947
    nsecs: 218538096
  frame_id: "imu"
orientation: 
  x: -0.06122309
  y: 0.05006233
  z: 0.08284618
  w: 0.99341941
orientation_covariance: [0.0001, 0.0, 0.0, 0.0, 0.0001, 0.0, 0.0, 0.0, 0.0001]
angular_velocity: 
  x: -0.00133158
  y: 0.0015979
  z: 0.00093211
angular_velocity_covariance: [0.0001, 0.0, 0.0, 0.0, 0.0001, 0.0, 0.0, 0.0, 0.0001]
linear_acceleration: 
  x: -0.01087307
  y: -0.01132741
  z: 0.10180358
linear_acceleration_covariance: [0.0001, 0.0, 0.0, 0.0, 0.0001, 0.0, 0.0, 0.0, 0.0001]
---
header: 
  seq: 2370
  stamp: 
    secs: 1534219947
    nsecs: 273894292
  frame_id: "imu"
orientation: 
  x: -0.06111537
  y: 0.05014074
  z: 0.08338907
  w: 0.99337673
orientation_covariance: [0.0001, 0.0, 0.0, 0.0, 0.0001, 0.0, 0.0, 0.0, 0.0001]
angular_velocity: 
  x: -0.00066579
  y: 0.00399474
  z: 0.00106526
angular_velocity_covariance: [0.0001, 0.0, 0.0, 0.0, 0.0001, 0.0, 0.0, 0.0, 0.0001]
linear_acceleration: 
  x: -0.01161993
  y: -0.01153903
  z: 0.10158575
linear_acceleration_covariance: [0.0001, 0.0, 0.0, 0.0, 0.0001, 0.0, 0.0, 0.0, 0.0001]
---
header: 
  seq: 2371
  stamp: 
    secs: 1534219947
    nsecs: 333266106
  frame_id: "imu"
orientation: 
  x: -0.06088039
  y: 0.05019627
  z: 0.08348782
  w: 0.99338001
orientation_covariance: [0.0001, 0.0, 0.0, 0.0, 0.0001, 0.0, 0.0, 0.0, 0.0001]
angular_velocity: 
  x: 0.00093211
  y: 0.0015979
  z: -0.00013316
angular_velocity_covariance: [0.0001, 0.0, 0.0, 0.0, 0.0001, 0.0, 0.0, 0.0, 0.0001]
linear_acceleration: 
  x: -0.01143944
  y: -0.01175064
  z: 0.10211477
linear_acceleration_covariance: [0.0001, 0.0, 0.0, 0.0, 0.0001, 0.0, 0.0, 0.0, 0.0001]
---
header: 
  seq: 2372
  stamp: 
    secs: 1534219947
    nsecs: 389545548
  frame_id: "imu"
orientation: 
  x: -0.06001572
  y: 0.05010397
  z: 0.08171539
  w: 0.99358463
orientation_covariance: [0.0001, 0.0, 0.0, 0.0, 0.0001, 0.0, 0.0, 0.0, 0.0001]
angular_velocity: 
  x: -0.00119842
  y: 0.00346211
  z: 0.00239685
angular_velocity_covariance: [0.0001, 0.0, 0.0, 0.0, 0.0001, 0.0, 0.0, 0.0, 0.0001]
linear_acceleration: 
  x: -0.01140832
  y: -0.01146434
  z: 0.10194673
linear_acceleration_covariance: [0.0001, 0.0, 0.0, 0.0, 0.0001, 0.0, 0.0, 0.0, 0.0001]
---
header: 
  seq: 2373
  stamp: 
    secs: 1534219947
    nsecs: 447376380
  frame_id: "imu"
orientation: 
  x: -0.05961357
  y: 0.05043308
  z: 0.07936384
  w: 0.99378282
orientation_covariance: [0.0001, 0.0, 0.0, 0.0, 0.0001, 0.0, 0.0, 0.0, 0.0001]
angular_velocity: 
  x: 0.00039947
  y: 0.00213053
  z: -0.00066579
angular_velocity_covariance: [0.0001, 0.0, 0.0, 0.0, 0.0001, 0.0, 0.0, 0.0, 0.0001]
linear_acceleration: 
  x: -0.01137098
  y: -0.01144567
  z: 0.10220813
linear_acceleration_covariance: [0.0001, 0.0, 0.0, 0.0, 0.0001, 0.0, 0.0, 0.0, 0.0001]
---
header: 
  seq: 2374
  stamp: 
    secs: 1534219947
    nsecs: 503966850
  frame_id: "imu"
orientation: 
  x: -0.05964842
  y: 0.0503586
  z: 0.07873382
  w: 0.9938345
orientation_covariance: [0.0001, 0.0, 0.0, 0.0, 0.0001, 0.0, 0.0, 0.0, 0.0001]
angular_velocity: 
  x: 0.00199737
  y: 0.00066579
  z: 0.00053263
angular_velocity_covariance: [0.0001, 0.0, 0.0, 0.0, 0.0001, 0.0, 0.0, 0.0, 0.0001]
linear_acceleration: 
  x: -0.01127762
  y: -0.0115328
  z: 0.10202763
linear_acceleration_covariance: [0.0001, 0.0, 0.0, 0.0, 0.0001, 0.0, 0.0, 0.0, 0.0001]
---
header: 
  seq: 2375
  stamp: 
    secs: 1534219947
    nsecs: 559295825
  frame_id: "imu"
orientation: 
  x: -0.05998544
  y: 0.0504913
  z: 0.07937928
  w: 0.99375623
orientation_covariance: [0.0001, 0.0, 0.0, 0.0, 0.0001, 0.0, 0.0, 0.0, 0.0001]
angular_velocity: 
  x: 0.00013316
  y: 0.00306264
  z: 0.00079895
angular_velocity_covariance: [0.0001, 0.0, 0.0, 0.0, 0.0001, 0.0, 0.0, 0.0, 0.0001]
linear_acceleration: 
  x: -0.01125273
  y: -0.01135231
  z: 0.10185959
linear_acceleration_covariance: [0.0001, 0.0, 0.0, 0.0, 0.0001, 0.0, 0.0, 0.0, 0.0001]
---
header: 
  seq: 2376
  stamp: 
    secs: 1534219947
    nsecs: 617133996
  frame_id: "imu"
orientation: 
  x: -0.06015808
  y: 0.05067009
  z: 0.07938062
  w: 0.99373651
orientation_covariance: [0.0001, 0.0, 0.0, 0.0, 0.0001, 0.0, 0.0, 0.0, 0.0001]
angular_velocity: 
  x: 0.00053263
  y: 0.00292948
  z: -0.00119842
angular_velocity_covariance: [0.0001, 0.0, 0.0, 0.0, 0.0001, 0.0, 0.0, 0.0, 0.0001]
linear_acceleration: 
  x: -0.01148301
  y: -0.01163238
  z: 0.10205253
linear_acceleration_covariance: [0.0001, 0.0, 0.0, 0.0, 0.0001, 0.0, 0.0, 0.0, 0.0001]
---
header: 
  seq: 2377
  stamp: 
    secs: 1534219947
    nsecs: 673732273
  frame_id: "imu"
orientation: 
  x: -0.0597854
  y: 0.0507452
  z: 0.07767987
  w: 0.99388957
orientation_covariance: [0.0001, 0.0, 0.0, 0.0, 0.0001, 0.0, 0.0, 0.0, 0.0001]
angular_velocity: 
  x: -0.00039947
  y: 0.00266316
  z: 0.00026632
angular_velocity_covariance: [0.0001, 0.0, 0.0, 0.0, 0.0001, 0.0, 0.0, 0.0, 0.0001]
linear_acceleration: 
  x: -0.01158259
  y: -0.01173196
  z: 0.10189693
linear_acceleration_covariance: [0.0001, 0.0, 0.0, 0.0, 0.0001, 0.0, 0.0, 0.0, 0.0001]
---
header: 
  seq: 2378
  stamp: 
    secs: 1534219947
    nsecs: 729308571
  frame_id: "imu"
orientation: 
  x: -0.05963114
  y: 0.05060046
  z: 0.07670729
  w: 0.99398184
orientation_covariance: [0.0001, 0.0, 0.0, 0.0, 0.0001, 0.0, 0.0, 0.0, 0.0001]
angular_velocity: 
  x: 0.00079895
  y: 0.00359527
  z: -0.00199737
angular_velocity_covariance: [0.0001, 0.0, 0.0, 0.0, 0.0001, 0.0, 0.0, 0.0, 0.0001]
linear_acceleration: 
  x: -0.01136476
  y: -0.01174441
  z: 0.10177868
linear_acceleration_covariance: [0.0001, 0.0, 0.0, 0.0, 0.0001, 0.0, 0.0, 0.0, 0.0001]
---
header: 
  seq: 2379
  stamp: 
    secs: 1534219947
    nsecs: 786920966
  frame_id: "imu"
orientation: 
  x: -0.06061516
  y: 0.05029765
  z: 0.08026247
  w: 0.99365687
orientation_covariance: [0.0001, 0.0, 0.0, 0.0, 0.0001, 0.0, 0.0, 0.0, 0.0001]
angular_velocity: 
  x: -0.00119842
  y: 0.00253
  z: -0.00106526
angular_velocity_covariance: [0.0001, 0.0, 0.0, 0.0, 0.0001, 0.0, 0.0, 0.0, 0.0001]
linear_acceleration: 
  x: -0.01132741
  y: -0.011427
  z: 0.10190316
linear_acceleration_covariance: [0.0001, 0.0, 0.0, 0.0, 0.0001, 0.0, 0.0, 0.0, 0.0001]
---
header: 
  seq: 2380
  stamp: 
    secs: 1534219947
    nsecs: 843485413
  frame_id: "imu"
orientation: 
  x: -0.06062383
  y: 0.05042089
  z: 0.0823107
  w: 0.99348253
orientation_covariance: [0.0001, 0.0, 0.0, 0.0, 0.0001, 0.0, 0.0, 0.0, 0.0001]
angular_velocity: 
  x: 0.00133158
  y: 0.00133158
  z: 0.00053263
angular_velocity_covariance: [0.0001, 0.0, 0.0, 0.0, 0.0001, 0.0, 0.0, 0.0, 0.0001]
linear_acceleration: 
  x: -0.01148923
  y: -0.01139588
  z: 0.10201519
linear_acceleration_covariance: [0.0001, 0.0, 0.0, 0.0, 0.0001, 0.0, 0.0, 0.0, 0.0001]
---
header: 
  seq: 2381
  stamp: 
    secs: 1534219947
    nsecs: 898858107
  frame_id: "imu"
orientation: 
  x: -0.0599627
  y: 0.05062644
  z: 0.08067551
  w: 0.99364626
orientation_covariance: [0.0001, 0.0, 0.0, 0.0, 0.0001, 0.0, 0.0, 0.0, 0.0001]
angular_velocity: 
  x: -0.00013316
  y: 0.00199737
  z: 0.00186421
angular_velocity_covariance: [0.0001, 0.0, 0.0, 0.0, 0.0001, 0.0, 0.0, 0.0, 0.0001]
linear_acceleration: 
  x: -0.01144567
  y: -0.01165728
  z: 0.10185959
linear_acceleration_covariance: [0.0001, 0.0, 0.0, 0.0, 0.0001, 0.0, 0.0, 0.0, 0.0001]
---
header: 
  seq: 2382
  stamp: 
    secs: 1534219947
    nsecs: 956632730
  frame_id: "imu"
orientation: 
  x: -0.0596344
  y: 0.05067724
  z: 0.07882599
  w: 0.99381191
orientation_covariance: [0.0001, 0.0, 0.0, 0.0, 0.0001, 0.0, 0.0, 0.0, 0.0001]
angular_velocity: 
  x: -0.00119842
  y: 0.00306264
  z: 0.00026632
angular_velocity_covariance: [0.0001, 0.0, 0.0, 0.0, 0.0001, 0.0, 0.0, 0.0, 0.0001]
linear_acceleration: 
  x: -0.0114021
  y: -0.01141455
  z: 0.10217079
linear_acceleration_covariance: [0.0001, 0.0, 0.0, 0.0, 0.0001, 0.0, 0.0, 0.0, 0.0001]
---
header: 
  seq: 2383
  stamp: 
    secs: 1534219948
    nsecs:  14070403
  frame_id: "imu"
orientation: 
  x: -0.05871139
  y: 0.05082324
  z: 0.07454839
  w: 0.99418944
orientation_covariance: [0.0001, 0.0, 0.0, 0.0, 0.0001, 0.0, 0.0, 0.0, 0.0001]
angular_velocity: 
  x: 0.00026632
  y: 0.00359527
  z: 0.00039947
angular_velocity_covariance: [0.0001, 0.0, 0.0, 0.0, 0.0001, 0.0, 0.0, 0.0, 0.0001]
linear_acceleration: 
  x: -0.01132119
  y: -0.01180043
  z: 0.10248198
linear_acceleration_covariance: [0.0001, 0.0, 0.0, 0.0, 0.0001, 0.0, 0.0, 0.0, 0.0001]
---
header: 
  seq: 2384
  stamp: 
    secs: 1534219948
    nsecs:  71155982
  frame_id: "imu"
orientation: 
  x: -0.05804168
  y: 0.05099145
  z: 0.06977174
  w: 0.99456674
orientation_covariance: [0.0001, 0.0, 0.0, 0.0, 0.0001, 0.0, 0.0, 0.0, 0.0001]
angular_velocity: 
  x: 0.00026632
  y: 0.00452737
  z: -0.00013316
angular_velocity_covariance: [0.0001, 0.0, 0.0, 0.0, 0.0001, 0.0, 0.0, 0.0, 0.0001]
linear_acceleration: 
  x: -0.0112714
  y: -0.01174441
  z: 0.10201519
linear_acceleration_covariance: [0.0001, 0.0, 0.0, 0.0, 0.0001, 0.0, 0.0, 0.0, 0.0001]
---
header: 
  seq: 2385
  stamp: 
    secs: 1534219948
    nsecs: 126427547
  frame_id: "imu"
orientation: 
  x: -0.05890595
  y: 0.05110972
  z: 0.06936482
  w: 0.99453831
orientation_covariance: [0.0001, 0.0, 0.0, 0.0, 0.0001, 0.0, 0.0, 0.0, 0.0001]
angular_velocity: 
  x: -0.00079895
  y: 0.00106526
  z: 0.0
angular_velocity_covariance: [0.0001, 0.0, 0.0, 0.0, 0.0001, 0.0, 0.0, 0.0, 0.0001]
linear_acceleration: 
  x: -0.01133986
  y: -0.01169462
  z: 0.10213967
linear_acceleration_covariance: [0.0001, 0.0, 0.0, 0.0, 0.0001, 0.0, 0.0, 0.0, 0.0001]
---
header: 
  seq: 2386
  stamp: 
    secs: 1534219948
    nsecs: 183002048
  frame_id: "imu"
orientation: 
  x: -0.06022859
  y: 0.05104202
  z: 0.07268321
  w: 0.99422562
orientation_covariance: [0.0001, 0.0, 0.0, 0.0, 0.0001, 0.0, 0.0, 0.0, 0.0001]
angular_velocity: 
  x: -0.00053263
  y: 0.00186421
  z: -0.00013316
angular_velocity_covariance: [0.0001, 0.0, 0.0, 0.0, 0.0001, 0.0, 0.0, 0.0, 0.0001]
linear_acceleration: 
  x: -0.01157637
  y: -0.01150168
  z: 0.10211477
linear_acceleration_covariance: [0.0001, 0.0, 0.0, 0.0, 0.0001, 0.0, 0.0, 0.0, 0.0001]
---
header: 
  seq: 2387
  stamp: 
    secs: 1534219948
    nsecs: 242109972
  frame_id: "imu"
orientation: 
  x: -0.06036269
  y: 0.05085588
  z: 0.07407261
  w: 0.99412441
orientation_covariance: [0.0001, 0.0, 0.0, 0.0, 0.0001, 0.0, 0.0, 0.0, 0.0001]
angular_velocity: 
  x: 0.00053263
  y: 0.00319579
  z: -0.00053263
angular_velocity_covariance: [0.0001, 0.0, 0.0, 0.0, 0.0001, 0.0, 0.0, 0.0, 0.0001]
linear_acceleration: 
  x: -0.01130252
  y: -0.01152035
  z: 0.1023575
linear_acceleration_covariance: [0.0001, 0.0, 0.0, 0.0, 0.0001, 0.0, 0.0, 0.0, 0.0001]
---
header: 
  seq: 2388
  stamp: 
    secs: 1534219948
    nsecs: 301182296
  frame_id: "imu"
orientation: 
  x: -0.05988877
  y: 0.05099425
  z: 0.07261216
  w: 0.99425375
orientation_covariance: [0.0001, 0.0, 0.0, 0.0, 0.0001, 0.0, 0.0, 0.0, 0.0001]
angular_velocity: 
  x: 0.00066579
  y: 0.00226369
  z: -0.00079895
angular_velocity_covariance: [0.0001, 0.0, 0.0, 0.0, 0.0001, 0.0, 0.0, 0.0, 0.0001]
linear_acceleration: 
  x: -0.01165728
  y: -0.01181288
  z: 0.10182847
linear_acceleration_covariance: [0.0001, 0.0, 0.0, 0.0, 0.0001, 0.0, 0.0, 0.0, 0.0001]
---
header: 
  seq: 2389
  stamp: 
    secs: 1534219948
    nsecs: 356510904
  frame_id: "imu"
orientation: 
  x: -0.05992676
  y: 0.0510304
  z: 0.07178131
  w: 0.9943099
orientation_covariance: [0.0001, 0.0, 0.0, 0.0, 0.0001, 0.0, 0.0, 0.0, 0.0001]
angular_velocity: 
  x: -0.00026632
  y: 0.00439422
  z: -0.00013316
angular_velocity_covariance: [0.0001, 0.0, 0.0, 0.0, 0.0001, 0.0, 0.0, 0.0, 0.0001]
linear_acceleration: 
  x: -0.01146434
  y: -0.01164483
  z: 0.10161064
linear_acceleration_covariance: [0.0001, 0.0, 0.0, 0.0, 0.0001, 0.0, 0.0, 0.0, 0.0001]
---
header: 
  seq: 2390
  stamp: 
    secs: 1534219948
    nsecs: 411841855
  frame_id: "imu"
orientation: 
  x: -0.06058935
  y: 0.05097309
  z: 0.0744875
  w: 0.99407357
orientation_covariance: [0.0001, 0.0, 0.0, 0.0, 0.0001, 0.0, 0.0, 0.0, 0.0001]
angular_velocity: 
  x: 0.00013316
  y: 0.00319579
  z: 0.0
angular_velocity_covariance: [0.0001, 0.0, 0.0, 0.0, 0.0001, 0.0, 0.0, 0.0, 0.0001]
linear_acceleration: 
  x: -0.0112465
  y: -0.01153903
  z: 0.10167287
linear_acceleration_covariance: [0.0001, 0.0, 0.0, 0.0, 0.0001, 0.0, 0.0, 0.0, 0.0001]
---
header: 
  seq: 2391
  stamp: 
    secs: 1534219948
    nsecs: 470989907
  frame_id: "imu"
orientation: 
  x: -0.06079178
  y: 0.05061649
  z: 0.07610992
  w: 0.99395651
orientation_covariance: [0.0001, 0.0, 0.0, 0.0, 0.0001, 0.0, 0.0, 0.0, 0.0001]
angular_velocity: 
  x: 0.00039947
  y: 0.00266316
  z: -0.00039947
angular_velocity_covariance: [0.0001, 0.0, 0.0, 0.0, 0.0001, 0.0, 0.0, 0.0, 0.0001]
linear_acceleration: 
  x: -0.01121539
  y: -0.01158882
  z: 0.10201519
linear_acceleration_covariance: [0.0001, 0.0, 0.0, 0.0, 0.0001, 0.0, 0.0, 0.0, 0.0001]
---
header: 
  seq: 2392
  stamp: 
    secs: 1534219948
    nsecs: 527508666
  frame_id: "imu"
orientation: 
  x: -0.06152729
  y: 0.05049991
  z: 0.07959793
  w: 0.993644
orientation_covariance: [0.0001, 0.0, 0.0, 0.0, 0.0001, 0.0, 0.0, 0.0, 0.0001]
angular_velocity: 
  x: -0.00079895
  y: 0.00239685
  z: 0.00173105
angular_velocity_covariance: [0.0001, 0.0, 0.0, 0.0, 0.0001, 0.0, 0.0, 0.0, 0.0001]
linear_acceleration: 
  x: -0.0111158
  y: -0.01158882
  z: 0.10187204
linear_acceleration_covariance: [0.0001, 0.0, 0.0, 0.0, 0.0001, 0.0, 0.0, 0.0, 0.0001]
---
header: 
  seq: 2393
  stamp: 
    secs: 1534219948
    nsecs: 585357165
  frame_id: "imu"
orientation: 
  x: -0.06169491
  y: 0.05029405
  z: 0.0821898
  w: 0.99343306
orientation_covariance: [0.0001, 0.0, 0.0, 0.0, 0.0001, 0.0, 0.0, 0.0, 0.0001]
angular_velocity: 
  x: 0.00053263
  y: 0.00146474
  z: 0.00013316
angular_velocity_covariance: [0.0001, 0.0, 0.0, 0.0, 0.0001, 0.0, 0.0, 0.0, 0.0001]
linear_acceleration: 
  x: -0.01140832
  y: -0.01159504
  z: 0.10178491
linear_acceleration_covariance: [0.0001, 0.0, 0.0, 0.0, 0.0001, 0.0, 0.0, 0.0, 0.0001]
---
header: 
  seq: 2394
  stamp: 
    secs: 1534219948
    nsecs: 641929324
  frame_id: "imu"
orientation: 
  x: -0.06158081
  y: 0.05036649
  z: 0.08317956
  w: 0.99335402
orientation_covariance: [0.0001, 0.0, 0.0, 0.0, 0.0001, 0.0, 0.0, 0.0, 0.0001]
angular_velocity: 
  x: -0.00079895
  y: 0.00079895
  z: -0.00106526
angular_velocity_covariance: [0.0001, 0.0, 0.0, 0.0, 0.0001, 0.0, 0.0, 0.0, 0.0001]
linear_acceleration: 
  x: -0.01146434
  y: -0.01174441
  z: 0.1019654
linear_acceleration_covariance: [0.0001, 0.0, 0.0, 0.0, 0.0001, 0.0, 0.0, 0.0, 0.0001]
---
header: 
  seq: 2395
  stamp: 
    secs: 1534219948
    nsecs: 699672845
  frame_id: "imu"
orientation: 
  x: -0.06125852
  y: 0.0503836
  z: 0.08358546
  w: 0.99333906
orientation_covariance: [0.0001, 0.0, 0.0, 0.0, 0.0001, 0.0, 0.0, 0.0, 0.0001]
angular_velocity: 
  x: 0.00013316
  y: 0.00106526
  z: 0.00066579
angular_velocity_covariance: [0.0001, 0.0, 0.0, 0.0, 0.0001, 0.0, 0.0, 0.0, 0.0001]
linear_acceleration: 
  x: -0.0115577
  y: -0.01177553
  z: 0.10174134
linear_acceleration_covariance: [0.0001, 0.0, 0.0, 0.0, 0.0001, 0.0, 0.0, 0.0, 0.0001]
---
header: 
  seq: 2396
  stamp: 
    secs: 1534219948
    nsecs: 754994323
  frame_id: "imu"
orientation: 
  x: -0.06084251
  y: 0.05035911
  z: 0.08316649
  w: 0.99340093
orientation_covariance: [0.0001, 0.0, 0.0, 0.0, 0.0001, 0.0, 0.0, 0.0, 0.0001]
angular_velocity: 
  x: -0.00146474
  y: 0.0015979
  z: 0.00013316
angular_velocity_covariance: [0.0001, 0.0, 0.0, 0.0, 0.0001, 0.0, 0.0, 0.0, 0.0001]
linear_acceleration: 
  x: -0.01150791
  y: -0.01172574
  z: 0.10215834
linear_acceleration_covariance: [0.0001, 0.0, 0.0, 0.0, 0.0001, 0.0, 0.0, 0.0, 0.0001]
---
header: 
  seq: 2397
  stamp: 
    secs: 1534219948
    nsecs: 811595420
  frame_id: "imu"
orientation: 
  x: -0.06038485
  y: 0.05047817
  z: 0.08221969
  w: 0.99350166
orientation_covariance: [0.0001, 0.0, 0.0, 0.0, 0.0001, 0.0, 0.0, 0.0, 0.0001]
angular_velocity: 
  x: -0.00039947
  y: 0.00239685
  z: 0.00039947
angular_velocity_covariance: [0.0001, 0.0, 0.0, 0.0, 0.0001, 0.0, 0.0, 0.0, 0.0001]
linear_acceleration: 
  x: -0.01135231
